{"fullgameschedule":{"lastUpdatedOn":"2017-08-05 7:17:15 AM","gameentry":[{"id":"37730","date":"2017-01-07","time":"4:35PM","awayTeam":{"ID":"74","City":"Oakland","Name":"Raiders","Abbreviation":"OAK"},"homeTeam":{"ID":"64","City":"Houston","Name":"Texans","Abbreviation":"HOU"},"location":"NRG Stadium"},{"id":"37731","date":"2017-01-07","time":"8:15PM","awayTeam":{"ID":"61","City":"Detroit","Name":"Lions","Abbreviation":"DET"},"homeTeam":{"ID":"79","City":"Seattle","Name":"Seahawks","Abbreviation":"SEA"},"location":"CenturyLink Field"},{"id":"37734","date":"2017-01-08","time":"1:05PM","awayTeam":{"ID":"49","City":"Miami","Name":"Dolphins","Abbreviation":"MIA"},"homeTeam":{"ID":"59","City":"Pittsburgh","Name":"Steelers","Abbreviation":"PIT"},"location":"Heinz Field"},{"id":"37733","date":"2017-01-08","time":"4:40PM","awayTeam":{"ID":"53","City":"New York","Name":"Giants","Abbreviation":"NYG"},"homeTeam":{"ID":"62","City":"Green Bay","Name":"Packers","Abbreviation":"GB"},"location":"Lambeau Field"},{"id":"37746","date":"2017-01-14","time":"4:35PM","awayTeam":{"ID":"79","City":"Seattle","Name":"Seahawks","Abbreviation":"SEA"},"homeTeam":{"ID":"68","City":"Atlanta","Name":"Falcons","Abbreviation":"ATL"},"location":"Georgia Dome"},{"id":"37747","date":"2017-01-14","time":"8:15PM","awayTeam":{"ID":"64","City":"Houston","Name":"Texans","Abbreviation":"HOU"},"homeTeam":{"ID":"50","City":"New England","Name":"Patriots","Abbreviation":"NE"},"location":"Gillette Stadium"},{"id":"37749","date":"2017-01-15","time":"4:40PM","awayTeam":{"ID":"62","City":"Green Bay","Name":"Packers","Abbreviation":"GB"},"homeTeam":{"ID":"52","City":"Dallas","Name":"Cowboys","Abbreviation":"DAL"},"location":"AT&T Stadium"},{"id":"37748","date":"2017-01-15","time":"8:20PM","awayTeam":{"ID":"59","City":"Pittsburgh","Name":"Steelers","Abbreviation":"PIT"},"homeTeam":{"ID":"73","City":"Kansas City","Name":"Chiefs","Abbreviation":"KC"},"location":"Arrowhead Stadium"},{"id":"37785","date":"2017-01-22","time":"3:05PM","awayTeam":{"ID":"62","City":"Green Bay","Name":"Packers","Abbreviation":"GB"},"homeTeam":{"ID":"68","City":"Atlanta","Name":"Falcons","Abbreviation":"ATL"},"location":"Georgia Dome"},{"id":"37786","date":"2017-01-22","time":"6:40PM","awayTeam":{"ID":"59","City":"Pittsburgh","Name":"Steelers","Abbreviation":"PIT"},"homeTeam":{"ID":"50","City":"New England","Name":"Patriots","Abbreviation":"NE"},"location":"Gillette Stadium"},{"id":"40225","date":"2017-02-05","time":"6:30PM","awayTeam":{"ID":"50","City":"New England","Name":"Patriots","Abbreviation":"NE"},"homeTeam":{"ID":"68","City":"Atlanta","Name":"Falcons","Abbreviation":"ATL"},"location":"Georgia Dome"}]}}