{"fullgameschedule":{"lastUpdatedOn":"2017-07-29 7:45:25 PM","gameentry":[{"id":"37750","date":"2016-10-04","time":"6:00PM","awayTeam":{"ID":"111","City":"Baltimore","Name":"Orioles","Abbreviation":"BAL"},"homeTeam":{"ID":"112","City":"Toronto","Name":"Blue Jays","Abbreviation":"TOR"},"location":"Rogers Centre"},{"id":"37751","date":"2016-10-05","time":"6:05PM","awayTeam":{"ID":"136","City":"San Francisco","Name":"Giants","Abbreviation":"SF"},"homeTeam":{"ID":"127","City":"New York","Name":"Mets","Abbreviation":"NYM"},"location":"Citi Field"},{"id":"37752","date":"2016-10-06","time":"2:30PM","awayTeam":{"ID":"112","City":"Toronto","Name":"Blue Jays","Abbreviation":"TOR"},"homeTeam":{"ID":"121","City":"Texas","Name":"Rangers","Abbreviation":"TEX"},"location":"Globe Life Park"},{"id":"37753","date":"2016-10-06","time":"7:05PM","awayTeam":{"ID":"113","City":"Boston","Name":"Red Sox","Abbreviation":"BOS"},"homeTeam":{"ID":"116","City":"Cleveland","Name":"Indians","Abbreviation":"CLE"},"location":"Progressive Field"},{"id":"37754","date":"2016-10-07","time":"1:00PM","awayTeam":{"ID":"112","City":"Toronto","Name":"Blue Jays","Abbreviation":"TOR"},"homeTeam":{"ID":"121","City":"Texas","Name":"Rangers","Abbreviation":"TEX"},"location":"Globe Life Park"},{"id":"37755","date":"2016-10-07","time":"3:30PM","awayTeam":{"ID":"113","City":"Boston","Name":"Red Sox","Abbreviation":"BOS"},"homeTeam":{"ID":"116","City":"Cleveland","Name":"Indians","Abbreviation":"CLE"},"location":"Progressive Field"},{"id":"37756","date":"2016-10-07","time":"4:30PM","awayTeam":{"ID":"137","City":"Los Angeles","Name":"Dodgers","Abbreviation":"LAD"},"homeTeam":{"ID":"126","City":"Washington","Name":"Nationals","Abbreviation":"WAS"},"location":"Nationals Park"},{"id":"37757","date":"2016-10-07","time":"7:10PM","awayTeam":{"ID":"136","City":"San Francisco","Name":"Giants","Abbreviation":"SF"},"homeTeam":{"ID":"131","City":"Chicago","Name":"Cubs","Abbreviation":"CHC"},"location":"Wrigley Field"},{"id":"37758","date":"2016-10-08","time":"6:00PM","awayTeam":{"ID":"136","City":"San Francisco","Name":"Giants","Abbreviation":"SF"},"homeTeam":{"ID":"131","City":"Chicago","Name":"Cubs","Abbreviation":"CHC"},"location":"Wrigley Field"},{"id":"37759","date":"2016-10-09","time":"1:00PM","awayTeam":{"ID":"137","City":"Los Angeles","Name":"Dodgers","Abbreviation":"LAD"},"homeTeam":{"ID":"126","City":"Washington","Name":"Nationals","Abbreviation":"WAS"},"location":"Nationals Park"},{"id":"37760","date":"2016-10-09","time":"6:30PM","awayTeam":{"ID":"121","City":"Texas","Name":"Rangers","Abbreviation":"TEX"},"homeTeam":{"ID":"112","City":"Toronto","Name":"Blue Jays","Abbreviation":"TOR"},"location":"Rogers Centre"},{"id":"37761","date":"2016-10-10","time":"1:00PM","awayTeam":{"ID":"126","City":"Washington","Name":"Nationals","Abbreviation":"WAS"},"homeTeam":{"ID":"137","City":"Los Angeles","Name":"Dodgers","Abbreviation":"LAD"},"location":"Dodger Stadium"},{"id":"37762","date":"2016-10-10","time":"5:00PM","awayTeam":{"ID":"116","City":"Cleveland","Name":"Indians","Abbreviation":"CLE"},"homeTeam":{"ID":"113","City":"Boston","Name":"Red Sox","Abbreviation":"BOS"},"location":"Fenway Park"},{"id":"37763","date":"2016-10-10","time":"5:30PM","awayTeam":{"ID":"131","City":"Chicago","Name":"Cubs","Abbreviation":"CHC"},"homeTeam":{"ID":"136","City":"San Francisco","Name":"Giants","Abbreviation":"SF"},"location":"AT&T Park"},{"id":"37764","date":"2016-10-11","time":"1:00PM","awayTeam":{"ID":"126","City":"Washington","Name":"Nationals","Abbreviation":"WAS"},"homeTeam":{"ID":"137","City":"Los Angeles","Name":"Dodgers","Abbreviation":"LAD"},"location":"Dodger Stadium"},{"id":"37765","date":"2016-10-11","time":"4:35PM","awayTeam":{"ID":"131","City":"Chicago","Name":"Cubs","Abbreviation":"CHC"},"homeTeam":{"ID":"136","City":"San Francisco","Name":"Giants","Abbreviation":"SF"},"location":"AT&T Park"},{"id":"37766","date":"2016-10-13","time":"7:00PM","awayTeam":{"ID":"137","City":"Los Angeles","Name":"Dodgers","Abbreviation":"LAD"},"homeTeam":{"ID":"126","City":"Washington","Name":"Nationals","Abbreviation":"WAS"},"location":"Nationals Park"},{"id":"37767","date":"2016-10-14","time":"7:00PM","awayTeam":{"ID":"112","City":"Toronto","Name":"Blue Jays","Abbreviation":"TOR"},"homeTeam":{"ID":"116","City":"Cleveland","Name":"Indians","Abbreviation":"CLE"},"location":"Progressive Field"},{"id":"37768","date":"2016-10-15","time":"3:00PM","awayTeam":{"ID":"112","City":"Toronto","Name":"Blue Jays","Abbreviation":"TOR"},"homeTeam":{"ID":"116","City":"Cleveland","Name":"Indians","Abbreviation":"CLE"},"location":"Progressive Field"},{"id":"37769","date":"2016-10-15","time":"6:00PM","awayTeam":{"ID":"137","City":"Los Angeles","Name":"Dodgers","Abbreviation":"LAD"},"homeTeam":{"ID":"131","City":"Chicago","Name":"Cubs","Abbreviation":"CHC"},"location":"Wrigley Field"},{"id":"37770","date":"2016-10-16","time":"6:00PM","awayTeam":{"ID":"137","City":"Los Angeles","Name":"Dodgers","Abbreviation":"LAD"},"homeTeam":{"ID":"131","City":"Chicago","Name":"Cubs","Abbreviation":"CHC"},"location":"Wrigley Field"},{"id":"37771","date":"2016-10-17","time":"7:00PM","awayTeam":{"ID":"116","City":"Cleveland","Name":"Indians","Abbreviation":"CLE"},"homeTeam":{"ID":"112","City":"Toronto","Name":"Blue Jays","Abbreviation":"TOR"},"location":"Rogers Centre"},{"id":"37772","date":"2016-10-18","time":"3:00PM","awayTeam":{"ID":"116","City":"Cleveland","Name":"Indians","Abbreviation":"CLE"},"homeTeam":{"ID":"112","City":"Toronto","Name":"Blue Jays","Abbreviation":"TOR"},"location":"Rogers Centre"},{"id":"37773","date":"2016-10-18","time":"4:00PM","awayTeam":{"ID":"131","City":"Chicago","Name":"Cubs","Abbreviation":"CHC"},"homeTeam":{"ID":"137","City":"Los Angeles","Name":"Dodgers","Abbreviation":"LAD"},"location":"Dodger Stadium"},{"id":"37774","date":"2016-10-19","time":"3:00PM","awayTeam":{"ID":"116","City":"Cleveland","Name":"Indians","Abbreviation":"CLE"},"homeTeam":{"ID":"112","City":"Toronto","Name":"Blue Jays","Abbreviation":"TOR"},"location":"Rogers Centre"},{"id":"37775","date":"2016-10-19","time":"4:00PM","awayTeam":{"ID":"131","City":"Chicago","Name":"Cubs","Abbreviation":"CHC"},"homeTeam":{"ID":"137","City":"Los Angeles","Name":"Dodgers","Abbreviation":"LAD"},"location":"Dodger Stadium"},{"id":"37776","date":"2016-10-20","time":"4:00PM","awayTeam":{"ID":"131","City":"Chicago","Name":"Cubs","Abbreviation":"CHC"},"homeTeam":{"ID":"137","City":"Los Angeles","Name":"Dodgers","Abbreviation":"LAD"},"location":"Dodger Stadium"},{"id":"37777","date":"2016-10-22","time":"6:00PM","awayTeam":{"ID":"137","City":"Los Angeles","Name":"Dodgers","Abbreviation":"LAD"},"homeTeam":{"ID":"131","City":"Chicago","Name":"Cubs","Abbreviation":"CHC"},"location":"Wrigley Field"},{"id":"37778","date":"2016-10-25","time":"7:00PM","awayTeam":{"ID":"131","City":"Chicago","Name":"Cubs","Abbreviation":"CHC"},"homeTeam":{"ID":"116","City":"Cleveland","Name":"Indians","Abbreviation":"CLE"},"location":"Progressive Field"},{"id":"37779","date":"2016-10-26","time":"6:00PM","awayTeam":{"ID":"131","City":"Chicago","Name":"Cubs","Abbreviation":"CHC"},"homeTeam":{"ID":"116","City":"Cleveland","Name":"Indians","Abbreviation":"CLE"},"location":"Progressive Field"},{"id":"37780","date":"2016-10-28","time":"6:00PM","awayTeam":{"ID":"116","City":"Cleveland","Name":"Indians","Abbreviation":"CLE"},"homeTeam":{"ID":"131","City":"Chicago","Name":"Cubs","Abbreviation":"CHC"},"location":"Wrigley Field"},{"id":"37781","date":"2016-10-29","time":"6:00PM","awayTeam":{"ID":"116","City":"Cleveland","Name":"Indians","Abbreviation":"CLE"},"homeTeam":{"ID":"131","City":"Chicago","Name":"Cubs","Abbreviation":"CHC"},"location":"Wrigley Field"},{"id":"37782","date":"2016-10-30","time":"6:10PM","awayTeam":{"ID":"116","City":"Cleveland","Name":"Indians","Abbreviation":"CLE"},"homeTeam":{"ID":"131","City":"Chicago","Name":"Cubs","Abbreviation":"CHC"},"location":"Wrigley Field"},{"id":"37783","date":"2016-11-01","time":"7:00PM","awayTeam":{"ID":"131","City":"Chicago","Name":"Cubs","Abbreviation":"CHC"},"homeTeam":{"ID":"116","City":"Cleveland","Name":"Indians","Abbreviation":"CLE"},"location":"Progressive Field"},{"id":"37784","date":"2016-11-02","time":"7:00PM","awayTeam":{"ID":"131","City":"Chicago","Name":"Cubs","Abbreviation":"CHC"},"homeTeam":{"ID":"116","City":"Cleveland","Name":"Indians","Abbreviation":"CLE"},"location":"Progressive Field"}]}}